{"Afghanistan":{"country_id":33,"name":"Afghanistan","iso":"AF","lon":65,"lat":33},"Albania":{"country_id":111,"name":"Albania","iso":"","lon":0,"lat":0},"Algeria":{"country_id":38,"name":"Algeria","iso":"DZ","lon":1.6596,"lat":28.0339},"American Samoa":{"country_id":208,"name":"American Samoa","iso":"","lon":0,"lat":0},"Andorra":{"country_id":71,"name":"Andorra","iso":"AD","lon":1.5218,"lat":42.5063},"Angola":{"country_id":182,"name":"Angola","iso":"","lon":0,"lat":0},"Antigua and Barbuda":{"country_id":136,"name":"Antigua and Barbuda","iso":"","lon":0,"lat":0},"Argentina":{"country_id":76,"name":"Argentina","iso":"AR","lon":-63.6167,"lat":-38.4161},"Armenia":{"country_id":67,"name":"Armenia","iso":"AM","lon":45.0382,"lat":40.0691},"Aruba":{"country_id":137,"name":"Aruba","iso":"","lon":0,"lat":0},"Australia":{"country_id":15,"name":"Australia","iso":"AU","lon":153.4,"lat":-28.0167},"Austria":{"country_id":41,"name":"Austria","iso":"AT","lon":14.5501,"lat":47.5162},"Azerbaijan":{"country_id":65,"name":"Azerbaijan","iso":"AZ","lon":47.5769,"lat":40.1431},"Bahamas":{"country_id":168,"name":"Bahamas","iso":"","lon":0,"lat":0},"Bahrain":{"country_id":36,"name":"Bahrain","iso":"BH","lon":50.55,"lat":26.0275},"Bangladesh":{"country_id":106,"name":"Bangladesh","iso":"BD","lon":90.3563,"lat":23.685},"Barbados":{"country_id":169,"name":"Barbados","iso":"","lon":0,"lat":0},"Belarus":{"country_id":54,"name":"Belarus","iso":"BY","lon":27.9534,"lat":53.7098},"Belgium":{"country_id":28,"name":"Belgium","iso":"BE","lon":4,"lat":50.8333},"Belize":{"country_id":195,"name":"Belize","iso":"","lon":0,"lat":0},"Benin":{"country_id":162,"name":"Benin","iso":"","lon":0,"lat":0},"Bermuda":{"country_id":210,"name":"Bermuda","iso":"","lon":0,"lat":0},"Bhutan":{"country_id":92,"name":"Bhutan","iso":"BT","lon":90.4336,"lat":27.5142},"Bolivia":{"country_id":122,"name":"Bolivia","iso":"","lon":0,"lat":0},"Bosnia and Herzegovina":{"country_id":88,"name":"Bosnia and Herzegovina","iso":"BA","lon":17.6791,"lat":43.9159},"Botswana":{"country_id":211,"name":"Botswana","iso":"","lon":0,"lat":0},"Brazil":{"country_id":44,"name":"Brazil","iso":"BR","lon":-51.9253,"lat":-14.235},"British Virgin Islands":{"country_id":240,"name":"British Virgin Islands","iso":"","lon":0,"lat":0},"Brunei":{"country_id":114,"name":"Brunei","iso":"","lon":0,"lat":0},"Bulgaria":{"country_id":103,"name":"Bulgaria","iso":"BG","lon":25.4858,"lat":42.7339},"Burkina Faso":{"country_id":116,"name":"Burkina Faso","iso":"","lon":0,"lat":0},"Burma":{"country_id":247,"name":"Burma","iso":"","lon":0,"lat":0},"Burundi":{"country_id":209,"name":"Burundi","iso":"","lon":0,"lat":0},"Cabo Verde":{"country_id":183,"name":"Cabo Verde","iso":"","lon":0,"lat":0},"Cambodia":{"country_id":16,"name":"Cambodia","iso":"KH","lon":104.9167,"lat":11.55},"Cameroon":{"country_id":91,"name":"Cameroon","iso":"CM","lon":11.5021,"lat":3.848},"Canada":{"country_id":14,"name":"Canada","iso":"CA","lon":-79.3832,"lat":43.6532},"Cayman Islands":{"country_id":131,"name":"Cayman Islands","iso":"","lon":0,"lat":0},"Central African Republic":{"country_id":157,"name":"Central African Republic","iso":"","lon":0,"lat":0},"Chad":{"country_id":176,"name":"Chad","iso":"","lon":0,"lat":0},"Channel Islands":{"country_id":117,"name":"Channel Islands","iso":"","lon":0,"lat":0},"Chile":{"country_id":77,"name":"Chile","iso":"CL","lon":-71.543,"lat":-35.6751},"China":{"country_id":1,"name":"China","iso":"CN","lon":117.2264,"lat":31.8257},"Colombia":{"country_id":93,"name":"Colombia","iso":"CO","lon":-74.2973,"lat":4.5709},"Comoros":{"country_id":212,"name":"Comoros","iso":"","lon":0,"lat":0},"Congo-Brazzaville":{"country_id":158,"name":"Congo-Brazzaville","iso":"","lon":0,"lat":0},"Congo-Kinshasa":{"country_id":124,"name":"Congo-Kinshasa","iso":"","lon":0,"lat":0},"Costa Rica":{"country_id":94,"name":"Costa Rica","iso":"CR","lon":-83.7534,"lat":9.7489},"Cote d'Ivoire":{"country_id":109,"name":"Cote d'Ivoire","iso":"IC","lon":0,"lat":0},"Croatia":{"country_id":39,"name":"Croatia","iso":"HR","lon":15.2,"lat":45.1},"Cuba":{"country_id":128,"name":"Cuba","iso":"","lon":0,"lat":0},"Curacao":{"country_id":146,"name":"Curacao","iso":"","lon":0,"lat":0},"Cyprus":{"country_id":112,"name":"Cyprus","iso":"","lon":0,"lat":0},"Czech Republic":{"country_id":66,"name":"Czech Republic","iso":"CZ","lon":15.473,"lat":49.8175},"Denmark":{"country_id":50,"name":"Denmark","iso":"DK","lon":9.5018,"lat":56.2639},"Diamond Princess":{"country_id":245,"name":"Diamond Princess","iso":"","lon":0,"lat":0},"Djibouti":{"country_id":175,"name":"Djibouti","iso":"","lon":0,"lat":0},"Dominica":{"country_id":190,"name":"Dominica","iso":"","lon":0,"lat":0},"Dominican Republic":{"country_id":68,"name":"Dominican Republic","iso":"DO","lon":-70.1627,"lat":18.7357},"Ecuador":{"country_id":64,"name":"Ecuador","iso":"EC","lon":-78.1834,"lat":-1.8312},"Egypt":{"country_id":31,"name":"Egypt","iso":"EG","lon":30,"lat":26},"El Salvador":{"country_id":177,"name":"El Salvador","iso":"","lon":0,"lat":0},"Equatorial Guinea":{"country_id":159,"name":"Equatorial Guinea","iso":"","lon":0,"lat":0},"Eritrea":{"country_id":188,"name":"Eritrea","iso":"","lon":0,"lat":0},"Estonia":{"country_id":51,"name":"Estonia","iso":"EE","lon":25.0136,"lat":58.5953},"Eswatini":{"country_id":147,"name":"Eswatini","iso":"","lon":0,"lat":0},"Ethiopia":{"country_id":133,"name":"Ethiopia","iso":"","lon":0,"lat":0},"Faroe Islands":{"country_id":82,"name":"Faroe Islands","iso":"FO","lon":-6.9118,"lat":61.8926},"Fiji":{"country_id":178,"name":"Fiji","iso":"","lon":0,"lat":0},"Finland":{"country_id":19,"name":"Finland","iso":"FI","lon":26,"lat":64},"France":{"country_id":11,"name":"France","iso":"FR","lon":2,"lat":47},"French Guiana":{"country_id":101,"name":"French Guiana","iso":"GF","lon":-53.1258,"lat":3.9339},"French Polynesia":{"country_id":228,"name":"French Polynesia","iso":"","lon":0,"lat":0},"Gabon":{"country_id":148,"name":"Gabon","iso":"","lon":0,"lat":0},"Gambia":{"country_id":171,"name":"Gambia","iso":"","lon":0,"lat":0},"Georgia":{"country_id":45,"name":"Georgia","iso":"GE","lon":43.3569,"lat":42.3154},"Germany":{"country_id":18,"name":"Germany","iso":"DE","lon":9,"lat":51},"Ghana":{"country_id":140,"name":"Ghana","iso":"","lon":0,"lat":0},"Gibraltar":{"country_id":83,"name":"Gibraltar","iso":"GI","lon":-5.3536,"lat":36.1408},"Greece":{"country_id":46,"name":"Greece","iso":"GR","lon":21.8243,"lat":39.0742},"Greenland":{"country_id":163,"name":"Greenland","iso":"","lon":0,"lat":0},"Grenada":{"country_id":191,"name":"Grenada","iso":"","lon":0,"lat":0},"Guadeloupe":{"country_id":132,"name":"Guadeloupe","iso":"","lon":0,"lat":0},"Guam":{"country_id":161,"name":"Guam","iso":"","lon":0,"lat":0},"Guatemala":{"country_id":149,"name":"Guatemala","iso":"","lon":0,"lat":0},"Guernsey":{"country_id":150,"name":"Guernsey","iso":"","lon":0,"lat":0},"Guinea":{"country_id":135,"name":"Guinea","iso":"","lon":0,"lat":0},"Guinea-Bissau":{"country_id":214,"name":"Guinea-Bissau","iso":"","lon":0,"lat":0},"Guyana":{"country_id":129,"name":"Guyana","iso":"","lon":0,"lat":0},"Haiti":{"country_id":181,"name":"Haiti","iso":"","lon":0,"lat":0},"Honduras":{"country_id":123,"name":"Honduras","iso":"","lon":0,"lat":0},"Hong Kong":{"country_id":7,"name":"Hong Kong","iso":"HK","lon":114.2,"lat":22.3},"Hungary":{"country_id":81,"name":"Hungary","iso":"HU","lon":19.5033,"lat":47.1625},"Iceland":{"country_id":55,"name":"Iceland","iso":"IS","lon":-19.0208,"lat":64.9631},"India":{"country_id":22,"name":"India","iso":"IN","lon":78,"lat":21},"Indonesia":{"country_id":69,"name":"Indonesia","iso":"ID","lon":113.9213,"lat":-0.7893},"Iran":{"country_id":30,"name":"Iran","iso":"IR","lon":53,"lat":32},"Iraq":{"country_id":34,"name":"Iraq","iso":"IQ","lon":44,"lat":33},"Ireland":{"country_id":60,"name":"Ireland","iso":"IE","lon":-7.6921,"lat":53.1424},"Israel":{"country_id":42,"name":"Israel","iso":"IL","lon":35,"lat":31},"Italy":{"country_id":23,"name":"Italy","iso":"IT","lon":12,"lat":43},"Jamaica":{"country_id":125,"name":"Jamaica","iso":"","lon":0,"lat":0},"Japan":{"country_id":3,"name":"Japan","iso":"JP","lon":138,"lat":36},"Jersey":{"country_id":141,"name":"Jersey","iso":"","lon":0,"lat":0},"Jordan":{"country_id":78,"name":"Jordan","iso":"JO","lon":36.51,"lat":31.24},"Kazakhstan":{"country_id":130,"name":"Kazakhstan","iso":"","lon":0,"lat":0},"Kenya":{"country_id":138,"name":"Kenya","iso":"","lon":0,"lat":0},"Kiribati":{"country_id":216,"name":"Kiribati","iso":"","lon":0,"lat":0},"Kosovo":{"country_id":156,"name":"Kosovo","iso":"","lon":0,"lat":0},"Kuwait":{"country_id":37,"name":"Kuwait","iso":"KW","lon":47.75,"lat":29.5},"Kyrgyzstan":{"country_id":172,"name":"Kyrgyzstan","iso":"","lon":0,"lat":0},"Laos":{"country_id":196,"name":"Laos","iso":"","lon":0,"lat":0},"Latvia":{"country_id":72,"name":"Latvia","iso":"LV","lon":24.6032,"lat":56.8796},"Lebanon":{"country_id":32,"name":"Lebanon","iso":"LB","lon":35.8623,"lat":33.8547},"Lesotho":{"country_id":218,"name":"Lesotho","iso":"","lon":0,"lat":0},"Liberia":{"country_id":164,"name":"Liberia","iso":"","lon":0,"lat":0},"Libya":{"country_id":197,"name":"Libya","iso":"","lon":0,"lat":0},"Liechtenstein":{"country_id":84,"name":"Liechtenstein","iso":"LI","lon":9.55,"lat":47.14},"Lithuania":{"country_id":56,"name":"Lithuania","iso":"LT","lon":23.8813,"lat":55.1694},"Luxembourg":{"country_id":61,"name":"Luxembourg","iso":"LU","lon":6.1296,"lat":49.8153},"MS Zaandam":{"country_id":248,"name":"MS Zaandam","iso":"","lon":0,"lat":0},"Macau":{"country_id":8,"name":"Macau","iso":"MO","lon":113.55,"lat":22.1667},"Madagascar":{"country_id":180,"name":"Madagascar","iso":"","lon":0,"lat":0},"Malawi":{"country_id":223,"name":"Malawi","iso":"","lon":0,"lat":0},"Malaysia":{"country_id":13,"name":"Malaysia","iso":"MY","lon":112.5,"lat":2.5},"Maldives":{"country_id":105,"name":"Maldives","iso":"MV","lon":73.2207,"lat":3.2028},"Mali":{"country_id":220,"name":"Mali","iso":"","lon":0,"lat":0},"Malta":{"country_id":99,"name":"Malta","iso":"MT","lon":14.3754,"lat":35.9375},"Marshall Islands":{"country_id":219,"name":"Marshall Islands","iso":"","lon":0,"lat":0},"Martinique":{"country_id":102,"name":"Martinique","iso":"MQ","lon":-61.0242,"lat":14.6415},"Mauritania":{"country_id":151,"name":"Mauritania","iso":"","lon":0,"lat":0},"Mauritius":{"country_id":173,"name":"Mauritius","iso":"","lon":0,"lat":0},"Mayotte":{"country_id":165,"name":"Mayotte","iso":"","lon":0,"lat":0},"Mexico":{"country_id":57,"name":"Mexico","iso":"MX","lon":-102.5528,"lat":23.6345},"Micronesia, Fed. Sts.":{"country_id":213,"name":"Micronesia, Fed. Sts.","iso":"","lon":0,"lat":0},"Moldova":{"country_id":108,"name":"Moldova","iso":"MD","lon":28.3699,"lat":47.4116},"Monaco":{"country_id":62,"name":"Monaco","iso":"MC","lon":7.4167,"lat":43.7333},"Mongolia":{"country_id":118,"name":"Mongolia","iso":"","lon":0,"lat":0},"Montenegro":{"country_id":170,"name":"Montenegro","iso":"","lon":0,"lat":0},"Morocco":{"country_id":73,"name":"Morocco","iso":"MA","lon":-7.0926,"lat":31.7917},"Mozambique":{"country_id":192,"name":"Mozambique","iso":"","lon":0,"lat":0},"Myanmar":{"country_id":221,"name":"Myanmar","iso":"","lon":0,"lat":0},"Namibia":{"country_id":142,"name":"Namibia","iso":"","lon":0,"lat":0},"Nauru":{"country_id":225,"name":"Nauru","iso":"","lon":0,"lat":0},"Nepal":{"country_id":12,"name":"Nepal","iso":"NP","lon":84.25,"lat":28.1667},"Netherlands":{"country_id":52,"name":"Netherlands","iso":"NL","lon":5.2913,"lat":52.1326},"New Caledonia":{"country_id":224,"name":"New Caledonia","iso":"","lon":0,"lat":0},"New Zealand":{"country_id":58,"name":"New Zealand","iso":"NZ","lon":174.886,"lat":-40.9006},"Nicaragua":{"country_id":179,"name":"Nicaragua","iso":"","lon":0,"lat":0},"Niger":{"country_id":184,"name":"Niger","iso":"","lon":0,"lat":0},"Nigeria":{"country_id":59,"name":"Nigeria","iso":"NG","lon":8.6753,"lat":9.082},"North Ireland":{"country_id":110,"name":"North Ireland","iso":"","lon":0,"lat":0},"North Korea":{"country_id":227,"name":"North Korea","iso":"","lon":0,"lat":0},"North Macedonia":{"country_id":47,"name":"North Macedonia","iso":"MK","lon":21.7453,"lat":41.6086},"Northern Mariana Islands":{"country_id":222,"name":"Northern Mariana Islands","iso":"","lon":0,"lat":0},"Norway":{"country_id":48,"name":"Norway","iso":"NO","lon":8.4689,"lat":60.472},"Oman":{"country_id":35,"name":"Oman","iso":"OM","lon":57,"lat":21},"Others":{"country_id":29,"name":"Others","iso":"","lon":139.638,"lat":35.4437},"Pakistan":{"country_id":43,"name":"Pakistan","iso":"PK","lon":69.3451,"lat":30.3753},"Palau":{"country_id":226,"name":"Palau","iso":"","lon":0,"lat":0},"Palestine":{"country_id":87,"name":"Palestine","iso":"PS","lon":35.2332,"lat":31.9522},"Panama":{"country_id":119,"name":"Panama","iso":"","lon":0,"lat":0},"Papua New Guinea":{"country_id":207,"name":"Papua New Guinea","iso":"","lon":0,"lat":0},"Paraguay":{"country_id":107,"name":"Paraguay","iso":"PY","lon":-58.4438,"lat":-23.4425},"Peru":{"country_id":95,"name":"Peru","iso":"PE","lon":-75.0152,"lat":-9.19},"Philippines":{"country_id":21,"name":"Philippines","iso":"PH","lon":122,"lat":13},"Poland":{"country_id":85,"name":"Poland","iso":"PL","lon":19.1451,"lat":51.9194},"Portugal":{"country_id":70,"name":"Portugal","iso":"PT","lon":-8.2245,"lat":39.3999},"Puerto Rico":{"country_id":180,"name":"Puerto Rico","iso":"","lon":0,"lat":0},"Qatar":{"country_id":63,"name":"Qatar","iso":"QA","lon":51.1839,"lat":25.3548},"Republic of Ireland":{"country_id":104,"name":"Republic of Ireland","iso":"IE","lon":-7.6921,"lat":53.1424},"Reunion":{"country_id":126,"name":"Reunion","iso":"","lon":0,"lat":0},"Romania":{"country_id":49,"name":"Romania","iso":"RO","lon":24.9668,"lat":45.9432},"Russia":{"country_id":25,"name":"Russia","iso":"RU","lon":90,"lat":60},"Rwanda":{"country_id":152,"name":"Rwanda","iso":"","lon":0,"lat":0},"Saint Barthelemy":{"country_id":80,"name":"Saint Barthelemy","iso":"BL","lon":-62.8333,"lat":17.9},"Saint Kitts and Nevis":{"country_id":246,"name":"Saint Kitts and Nevis","iso":"","lon":0,"lat":0},"Saint Lucia":{"country_id":153,"name":"Saint Lucia","iso":"","lon":0,"lat":0},"Saint Martin":{"country_id":113,"name":"Saint Martin","iso":"","lon":0,"lat":0},"Saint Vincent and the Grenadines":{"country_id":154,"name":"Saint Vincent and the Grenadines","iso":"","lon":0,"lat":0},"Samoa":{"country_id":243,"name":"Samoa","iso":"","lon":0,"lat":0},"San Marino":{"country_id":53,"name":"San Marino","iso":"SM","lon":12.4578,"lat":43.9424},"Sao Tome and Principe":{"country_id":232,"name":"Sao Tome and Principe","iso":"","lon":0,"lat":0},"Saudi Arabia":{"country_id":74,"name":"Saudi Arabia","iso":"SA","lon":45,"lat":24},"Senegal":{"country_id":75,"name":"Senegal","iso":"SN","lon":-14.4524,"lat":14.4974},"Serbia":{"country_id":96,"name":"Serbia","iso":"RS","lon":21.0059,"lat":44.0165},"Seychelles":{"country_id":143,"name":"Seychelles","iso":"","lon":0,"lat":0},"Sierra Leone":{"country_id":230,"name":"Sierra Leone","iso":"","lon":0,"lat":0},"Singapore":{"country_id":9,"name":"Singapore","iso":"SG","lon":103.8333,"lat":1.2833},"Slovakia":{"country_id":97,"name":"Slovakia","iso":"SK","lon":19.699,"lat":48.669},"Slovenia":{"country_id":89,"name":"Slovenia","iso":"SI","lon":14.9955,"lat":46.1512},"Solomon Islands":{"country_id":229,"name":"Solomon Islands","iso":"","lon":0,"lat":0},"Somalia":{"country_id":166,"name":"Somalia","iso":"","lon":0,"lat":0},"South Africa":{"country_id":90,"name":"South Africa","iso":"ZA","lon":22.9375,"lat":-30.5595},"South Korea":{"country_id":4,"name":"South Korea","iso":"KR","lon":128,"lat":36},"South Sudan":{"country_id":231,"name":"South Sudan","iso":"","lon":0,"lat":0},"Spain":{"country_id":27,"name":"Spain","iso":"ES","lon":-4,"lat":40},"Sri Lanka":{"country_id":17,"name":"Sri Lanka","iso":"LK","lon":81,"lat":7},"St. Kitts and Nevis":{"country_id":217,"name":"St. Kitts and Nevis","iso":"","lon":0,"lat":0},"Sudan":{"country_id":134,"name":"Sudan","iso":"","lon":0,"lat":0},"Suriname":{"country_id":155,"name":"Suriname","iso":"","lon":0,"lat":0},"Sweden":{"country_id":26,"name":"Sweden","iso":"SE","lon":16,"lat":63},"Switzerland":{"country_id":40,"name":"Switzerland","iso":"CH","lon":8.2275,"lat":46.8182},"Syria":{"country_id":193,"name":"Syria","iso":"","lon":0,"lat":0},"Taipei":{"country_id":115,"name":"Taipei","iso":"","lon":0,"lat":0},"Taiwan":{"country_id":5,"name":"Taiwan","iso":"TW","lon":121,"lat":23.7},"Tajikistan":{"country_id":235,"name":"Tajikistan","iso":"","lon":0,"lat":0},"Tanzania":{"country_id":167,"name":"Tanzania","iso":"","lon":0,"lat":0},"Thailand":{"country_id":2,"name":"Thailand","iso":"TH","lon":101,"lat":15},"Timor-Leste":{"country_id":194,"name":"Timor-Leste","iso":"","lon":0,"lat":0},"Togo":{"country_id":98,"name":"Togo","iso":"TG","lon":0.8248,"lat":8.6195},"Tonga":{"country_id":237,"name":"Tonga","iso":"","lon":0,"lat":0},"Trinidad and Tobago":{"country_id":144,"name":"Trinidad and Tobago","iso":"","lon":0,"lat":0},"Tunisia":{"country_id":86,"name":"Tunisia","iso":"TN","lon":9,"lat":34},"Turkey":{"country_id":127,"name":"Turkey","iso":"","lon":0,"lat":0},"Turkmenistan":{"country_id":236,"name":"Turkmenistan","iso":"","lon":0,"lat":0},"Tuvalu":{"country_id":238,"name":"Tuvalu","iso":"","lon":0,"lat":0},"Uganda":{"country_id":189,"name":"Uganda","iso":"","lon":0,"lat":0},"Ukraine":{"country_id":79,"name":"Ukraine","iso":"UA","lon":31.1656,"lat":48.3794},"United Arab Emirates":{"country_id":20,"name":"United Arab Emirates","iso":"AE","lon":54,"lat":24},"United Kingdom":{"country_id":24,"name":"United Kingdom","iso":"GB","lon":-3,"lat":55},"United States of America":{"country_id":6,"name":"United States of America","iso":"US","lon":-122.3321,"lat":47.6062},"Uruguay":{"country_id":139,"name":"Uruguay","iso":"","lon":0,"lat":0},"Uzbekistan":{"country_id":160,"name":"Uzbekistan","iso":"","lon":0,"lat":0},"Vanuatu":{"country_id":242,"name":"Vanuatu","iso":"","lon":0,"lat":0},"Vatican City":{"country_id":100,"name":"Vatican City","iso":"VA","lon":12.4534,"lat":41.9029},"Venezuela":{"country_id":145,"name":"Venezuela","iso":"","lon":0,"lat":0},"Vietnam":{"country_id":10,"name":"Vietnam","iso":"VN","lon":108,"lat":16},"Virgin Islands (U.S.)":{"country_id":241,"name":"Virgin Islands (U.S.)","iso":"","lon":0,"lat":0},"Western Sahara":{"country_id":249,"name":"Western Sahara","iso":"","lon":0,"lat":0},"World":{"country_id":0,"name":"World","iso":"","lon":0,"lat":0},"Yemen":{"country_id":244,"name":"Yemen","iso":"","lon":0,"lat":0},"Zambia":{"country_id":174,"name":"Zambia","iso":"","lon":0,"lat":0},"Zimbabwe":{"country_id":185,"name":"Zimbabwe","iso":"","lon":0,"lat":0}}